Id,Label,timeset,lat,long,parish,population,modularity_class,Weighted Degree,recovery weight
Above Rocks,Above Rocks,,18.1089,-76.8772,Saint Catherine,3263,0,139,0.25
Annotto Bay,Annotto Bay,,18.2703,-76.7706,Saint Mary,5468,1,33,0.25
Bog Walk,Bog Walk,,18.1,-77.02,Saint Catherine,8794,0,88,0.25
Constant Spring,Constant Spring,,18.05,-76.78,Saint Andrew,12369,0,127,0.25
Ewarton,Ewarton,,18.18,-77.08,Saint Catherine,8742,0,34,0.25
Gordon Town,Gordon Town,,18.05,-76.7,Saint Andrew,1049,0,100,0.25
Albert Town,Albert Town,,18.2958,-77.5414,Trelawny,3389,5,36,0.25
Alexandria,Alexandria,,18.2983,-77.3575,Saint Ann,1672,5,34,0.25
Balaclava,Balaclava,,18.1705,-77.6484,Saint Elizabeth,2837,3,42,0.25
Brown's Town,Brown's Town,,18.4,-77.36,Saint Ann,6762,5,28,0.25
Cave Valley,Cave Valley,,18.27,-77.37,Saint Ann,1777,5,29,0.25
Christiana,Christiana,,18.17,-77.49,Manchester,7235,3,21,0.25
Bamboo,Bamboo,,18.3851,-77.2662,Saint Ann,3732,5,26,0.25
Alligator Pond,Alligator Pond,,17.8711,-77.5683,Manchester,1542,3,32,0.25
Bull Savanna,Bull Savanna,,17.88,-77.59,Saint Elizabeth,3163.8,3,31,0.25
Malvern,Malvern,,17.97,-77.72,Saint Elizabeth,3262,3,15,0.25
Mandeville,Mandeville,,18.05,-77.48,Manchester,39945,3,13,0.25
Nain,Nain,,17.97,-77.6,Saint Elizabeth,2373,3,8,0.25
Porus,Porus,,18.03,-77.42,Manchester,5095,3,5,0.25
Anchovy,Anchovy,,18.4097,-77.9339,Saint James,3633,2,88,0.25
Bethel Town,Bethel Town,,18.3,-77.95,Westmoreland,2768,2,98,0.25
Cambridge,Cambridge,,18.32,-77.89,Saint James,3384,2,82,0.25
Cascade,Cascade,,18.4,-78.1,Hanover,1220,2,93,0.25
Darliston,Darliston,,18.23,-77.97,Westmoreland,1435,2,35,0.25
Maroon Town,Maroon Town,,18.35,-77.79,Saint James,2669,2,34,0.25
Buff Bay,Buff Bay,,18.23,-76.67,Portland,2596,1,31,0.25
Guy's Hill,Guy's Hill,,18.25,-77,Saint Mary,3165,1,14,0.25
Coleyville,Coleyville,,18.22,-77.5,Manchester,3320,3,15,0.25
Lacovia,Lacovia,,18.07,-77.75,Saint Elizabeth,3159,3,20,0.25
Claremont,Claremont,,18.38,-77.17,Saint Ann,2154,5,22,0.25
Bath,Bath,,17.95,-76.35,Saint Thomas,2151,4,23,0.25
Dalvey,Dalvey,,17.9,-76.25,Saint Thomas,2742,4,16,0.25
Golden Grove,Golden Grove,,17.93,-76.27,Saint Thomas,2761,4,15,0.25
Manchioneal,Manchioneal,,18.05,-76.28,Portland,2185,4,15,0.25
Moore Town,Moore Town,,18.07,-76.43,Portland,1054,4,16,0.25
Morant Bay,Morant Bay,,17.87,-76.39,Saint Thomas,9602,4,6,0.25
Bluefields,Bluefields,,18.17,-78.03,Westmoreland,2564,2,48,0.25
Black River,Black River,,18.03,-77.86,Saint Elizabeth,3675,3,31,0.25
Brompton,Brompton,,18.06,-77.9,Saint Elizabeth,1457,3,27,0.25
Maggotty,Maggotty,,18.15,-77.77,Saint Elizabeth,1359,3,9,0.25
Croft's Hill,Croft's Hill,,18.13,-77.22,Clarendon,2994,7,17,0.25
Highgate,Highgate,,18.32,-76.87,Saint Mary,5418,1,10,0.25
Chapelton,Chapelton,,18.08,-77.27,Clarendon,3930,7,22,0.25
Frankfield,Frankfield,,18.15,-77.35,Clarendon,2865,7,11,0.25
Hayes,Hayes,,17.88,-77.25,Clarendon,8447,7,15,0.25
Clark's Town,Clark's Town,,18.42,-77.57,Trelawny,3139,5,25,0.25
Discovery Bay (Dry Harbour),Discovery Bay (Dry Harbour),,18.47,-77.39,Saint Ann,2230,5,12,0.25
Duncans,Duncans,,18.47,-77.53,Trelawny,1849,5,17,0.25
Easington,Easington,,17.92,-76.6,Saint Thomas,2378,0,69,0.25
Kingston,Kingston,,17.9833,-76.8,Kingston,16411,0,93,1
Mavis Bank,Mavis Bank,,18.02,-76.67,Saint Andrew,1756,4,10,0.25
Falmouth,Falmouth,,18.49,-77.66,Trelawny,7245,2,30,0.25
Rio Bueno,Rio Bueno,,18.57,-77.45,Trelawny,1108,5,5,0.25
Frome,Frome,,18.3,-78.15,Westmoreland,900,6,47,0.25
Grange Hill,Grange Hill,,18.37,-78.2,Westmoreland,6530,6,33,0.25
Gayle,Gayle,,18.33,-77,Saint Mary,3205,1,17,0.25
Islington,Islington,,18.32,-76.85,Saint Mary,2868,1,9,0.25
Hopewell,Hopewell,,18.25,-78.3,Hanover,4268,6,24,0.25
Little London,Little London,,18.3,-78.2,Westmoreland,1848,6,22,0.25
Lionel Town,Lionel Town,,17.8,-77.23,Clarendon,4669,7,11,0.25
May Pen,May Pen,,17.97,-77.24,Clarendon,45903,7,8,0.25
Old Harbour,Old Harbour,,17.92,-77.1,Saint Catherine,17778,7,9,0.25
Hope Bay,Hope Bay,,18.2,-76.57,Portland,1569,4,9,0.25
Lucea,Lucea,,18.44,-78.18,Hanover,6002,6,9,0.25
Kellits,Kellits,,18.17,-77.23,Clarendon,2291,7,8,0.25
Linstead,Linstead,,18.15,-77.02,Saint Catherine,14114,0,5,0.25
Old Harbour Bay,Old Harbour Bay,,17.9,-77.1,Saint Catherine,5405,7,9,0.25
Lluidas Vale,Lluidas Vale,,18.12,-77.15,Saint Catherine,2161,7,7,0.25
Lucky Hill,Lucky Hill,,18.3,-77.02,Saint Mary,750,1,7,0.25
Moneague,Moneague,,18.28,-77.1,Saint Ann,2880,5,5,0.25
Montego Bay,Montego Bay,,18.4666,-77.9166,Saint James,96488,2,9,0.25
Negril,Negril,,18.32,-78.33,Westmoreland,4184,6,6,0.25
Ocho Rios,Ocho Rios,,18.42,-77.11,Saint Ann,8189,1,6,0.25
Oracabessa,Oracabessa,,18.47,-76.93,Saint Mary,4066,1,5,0.25
Osbourne Store,Osbourne Store,,17.97,-77.33,Clarendon,3390,7,5,0.25
Petersfield,Petersfield,,18.25,-78.07,Westmoreland,2045,2,5,0.25
Point Hill,Point Hill,,18.08,-77.1,Saint Catherine,3651,7,5,0.25
Port Antonio,Port Antonio,,18.16,-76.38,Portland,13246,4,9,0.25
Snow Hill,Snow Hill,,18.200444,-76.500406,Portland,4130,4,6,0.25
Port Maria,Port Maria,,18.37,-76.89,Saint Mary,7651,1,5,0.25
Port Royal,Port Royal,,17.93,-76.85,Kingston,3004,0,5,0.25
Portmore,Portmore,,17.9499,-76.8799,Saint Catherine,90138,0,5,0.25
Race Course,Race Course,,17.83,-77.28,Clarendon,2589,7,5,0.25
Richmond,Richmond,,18.23,-76.9,Saint Mary,1984,1,5,0.25
Riversdale,Riversdale,,18.15,-76.97,Saint Catherine,2791,0,5,0.25
Rocky Point,Rocky Point,,17.77,-77.27,Clarendon,2744,7,5,0.25
Runaway Bay,Runaway Bay,,18.45,-77.33,Saint Ann,5655,5,5,0.25
Saint Ann's Bay,Saint Ann's Bay,,18.44,-77.22,Saint Ann,10961,5,5,0.25
Sandy Bay,Sandy Bay,,18.45,-78.1,Hanover,4476,2,5,0.25
Sanguinetti,Sanguinetti,,18.1,-77.34,Clarendon,3900,3,5,0.25
Santa Cruz,Santa Cruz,,18.07,-77.72,Saint Elizabeth,8144,3,5,0.25
Savanna-la-Mar,Savanna-la-Mar,,18.16,-77.95,Westmoreland,16553,2,5,0.25
Seaford Town,Seaford Town,,18.15,-77.54,Westmoreland,4108,3,5,0.25
Seaforth,Seaforth,,17.93,-76.45,Saint Thomas,4108,4,5,0.25
Siloah,Siloah,,18.17,-77.73,Saint Elizabeth,2701,3,5,0.25
Southfield,Southfield,,17.88,-77.67,Saint Elizabeth,2671,3,5,0.25
Spanish Town,Spanish Town,,17.9958,-76.9551,Saint Catherine,92383,0,5,0.25
Stony Hill,Stony Hill,,18.08,-76.78,Saint Andrew,8244,1,5,0.25
Trinity Ville,Trinity Ville,,17.95,-76.53,Saint Thomas,2614,4,5,0.25
Ulster Spring,Ulster Spring,,18.32,-77.52,Trelawny,1391,5,5,0.25
Wakefield,Wakefield,,18.42,-77.72,Trelawny,2724,5,5,0.25
White House,White House,,18.08,-77.97,Westmoreland,3157,2,5,0.25
Williamsfield,Williamsfield,,18.07,-77.48,Manchester,2800,3,5,0.25
Yallahs,Yallahs,,17.87,-76.57,Saint Thomas,6902,4,5,0.25
Grantham,Grantham,,17.955718,-77.240515,Clarendon,7611.090909,7,5,0.25
Mineral Heights,Mineral Heights,,17.942157,-77.23333,Clarendon,7611.090909,7,5,0.25
May Pen Proper,May Pen Proper,,17.971896,-77.243044,Clarendon,7611.090909,7,5,0.25
Longwood,Longwood,,17.813019,-77.280742,Clarendon,7611.090909,7,5,0.25
Copse,Copse,,17.969923,-76.788615,Hanover,3511.4,0,5,0.25
Logwood,Logwood,,18.344818,-78.297987,Hanover,3511.4,6,5,0.25
Cacoon,Cacoon,,18.40883,-78.202591,Hanover,3511.4,6,5,0.25
Orange Bay,Orange Bay,,18.369958,-78.314518,Hanover,3511.4,6,5,0.25
Ramble,Ramble,,18.350996,-77.977434,Hanover,3511.4,2,5,0.25
Kingsvale,Kingsvale,,18.386414,-78.203463,Hanover,3511.4,6,5,0.25
Dias,Dias,,18.398245,-78.194203,Hanover,3511.4,6,5,0.25
Jericho,Jericho,,18.429078,-78.129345,Hanover,3511.4,2,5,0.25
Rock Spring,Rock Spring,,18.409796,-78.133592,Hanover,3511.4,2,5,0.25
Lucea West,Lucea West,,18.450419,-78.176394,Hanover,3511.4,6,5,0.25
Askenish,Askenish,,18.384,-78.150467,Hanover,3511.4,2,5,0.25
Lucea East,Lucea East,,18.450419,-78.176394,Hanover,3511.4,6,5,0.25
Lances Bay,Lances Bay,,18.445113,-78.219844,Hanover,3511.4,6,5,0.25
Great Valley,Great Valley,,18.396561,-78.075392,Hanover,3511.4,2,5,0.25
Cousins Cove,Cousins Cove,,18.423351,-78.245479,Hanover,3511.4,6,5,0.25
Success,Success,,18.365076,-78.047067,Hanover,3511.4,2,5,0.25
Santoy,Santoy,,18.356514,-78.286054,Hanover,3511.4,6,5,0.25
Cauldwell,Cauldwell,,18.389526,-78.244952,Hanover,3511.4,6,5,0.25
Mount Peto,Mount Peto,,18.344065,-78.017178,Hanover,3511.4,2,5,0.25
Maryland,Maryland,,18.387556,-78.129812,Hanover,3511.4,2,5,0.25
Cacoon Castle,Cacoon Castle,,18.428237,-78.131552,Hanover,3511.4,2,5,0.25
Chester Castle,Chester Castle,,18.321366,-77.970296,Hanover,3511.4,2,5,0.25
Haddington,Haddington,,18.409771,-78.133638,Hanover,3511.4,2,5,0.25
Pondside,Pondside,,18.396561,-78.075392,Hanover,3511.4,2,5,0.25
March Town,March Town,,18.34504,-78.277597,Hanover,3511.4,6,5,0.25
East Down Town,East Down Town,,17.970992,-76.789609,Kingston,16411,0,5,0.25
Denham Town,Denham Town,,18.037052,-76.830003,Kingston,16411,0,5,0.25
Central Down Town,Central Down Town,,18.017874,-76.809904,Kingston,16411,0,5,0.25
Passmore Town,Passmore Town,,17.96968,-76.78126,Kingston,16411,0,5,0.25
Rollington Town,Rollington Town,,17.977595,-76.76972,Kingston,16411,0,5,0.25
D'Aguilar Town/ Rennock Lodge,D'Aguilar Town/ Rennock Lodge,,17.999862,-76.817184,Kingston,16411,0,5,0.25
West Down Town,West Down Town,,17.968725,-76.788471,Kingston,16411,0,5,0.25
Tivoli Gardens,Tivoli Gardens,,17.974651,-76.80073,Kingston,16411,0,5,0.25
Newton Square,Newton Square,,17.95984,-76.87722,Kingston,16411,0,5,0.25
Kingston Gardens,Kingston Gardens,,18.024718,-76.809602,Kingston,16411,0,5,0.25
Bournemouth Gardens,Bournemouth Gardens,,17.97119,-76.761065,Kingston,16411,0,5,0.25
Rae Town,Rae Town,,18.017874,-76.809904,Kingston,16411,0,5,0.25
Allman Town,Allman Town,,17.984597,-76.787029,Kingston,16411,0,5,0.25
Manley Meadows,Manley Meadows,,17.967596,-76.768524,Kingston,16411,0,5,0.25
Franklyn Town,Franklyn Town,,17.977993,-76.77549,Kingston,16411,0,5,0.25
Norman Gardens,Norman Gardens,,17.979702,-76.758179,Kingston,16411,0,5,0.25
Fletchers Land,Fletchers Land,,17.979454,-76.791383,Kingston,16411,0,5,0.25
Hatfield,Hatfield,,18.030429,-77.536146,Manchester,9989.5,3,5,0.25
Mandeville Proper,Mandeville Proper,,18.036775,-77.505284,Manchester,9989.5,3,5,0.25
Newport,Newport,,17.92865,-77.516319,Manchester,9989.5,3,5,0.25
Knockpatrick,Knockpatrick,,17.993635,-77.507477,Manchester,9989.5,3,5,0.25
New Green,New Green,,18.05352,-77.510796,Manchester,9989.5,3,5,0.25
Royal Flat,Royal Flat,,18.056782,-77.471631,Manchester,9989.5,3,5,0.25
Part of Spaldings,Part of Spaldings,,18.15773,-77.45729,Manchester,9989.5,5,5,0.25
Central Port Antonio,Central Port Antonio,,18.171276,-76.447632,Portland,4130,4,5,0.25
Windsor Forest,Windsor Forest,,18.116477,-76.334472,Portland,4130,4,5,0.25
Norwich,Norwich,,18.19427,-76.475662,Portland,4130,4,5,0.25
Mona Heights,Mona Heights,,18.014149,-76.752409,Saint Andrew,5854.5,0,5,0.25
Seaward Pen,Seaward Pen,,18.02154,-76.820663,Saint Andrew,5854.5,0,5,0.25
Bull Bay/ Seven Mile,Bull Bay/ Seven Mile,,17.942921,-76.66726,Saint Andrew,5854.5,0,5,0.25
Delacree Park/ Union Gardens,Delacree Park/ Union Gardens,,17.989284,-76.817218,Saint Andrew,5854.5,0,5,0.25
University,University,,18.006013,-76.747103,Saint Andrew,5854.5,0,5,0.25
Harbour View,Harbour View,,17.952329,-76.719222,Saint Andrew,5854.5,0,5,0.25
Red Hills (Rural),Red Hills (Rural),,18.058326,-76.85372,Saint Andrew,5854.5,0,5,0.25
Norbrook,Norbrook,,18.055455,-76.782702,Saint Andrew,5854.5,1,5,0.25
Lawrence Tavern,Lawrence Tavern,,18.127907,-76.846409,Saint Andrew,5854.5,1,5,0.25
Delacree Pen,Delacree Pen,,17.995495,-76.818756,Saint Andrew,5854.5,0,5,0.25
Greenwich Town/ Newport West,Greenwich Town/ Newport West,,17.96757,-76.804737,Saint Andrew,5854.5,0,5,0.25
Tower Hill,Tower Hill,,18.010439,-76.829911,Saint Andrew,5854.5,0,5,0.25
Trench Town,Trench Town,,17.98579,-76.804335,Saint Andrew,5854.5,0,5,0.25
Waterhouse,Waterhouse,,18.028568,-76.843746,Saint Andrew,5854.5,0,5,0.25
Grants Pen,Grants Pen,,18.031638,-76.790952,Saint Andrew,5854.5,0,5,0.25
Whitehall,Whitehall,,18.038067,-76.809234,Saint Andrew,5854.5,0,5,0.25
Havendale,Havendale,,18.051639,-76.811546,Saint Andrew,5854.5,1,5,0.25
Barbican,Barbican,,18.025612,-76.771163,Saint Andrew,5854.5,0,5,0.25
Cavaliers,Cavaliers,,18.094858,-76.835327,Saint Andrew,5854.5,1,5,0.25
Roehampton,Roehampton,,18.042897,-76.80758,Saint Andrew,5854.5,0,5,0.25
Cross Roads,Cross Roads,,17.992832,-76.790635,Saint Andrew,5854.5,0,5,0.25
Pembroke Hall,Pembroke Hall,,18.029593,-76.828849,Saint Andrew,5854.5,0,5,0.25
Kencot,Kencot,,18.002619,-76.795682,Saint Andrew,5854.5,0,5,0.25
Vineyard Town,Vineyard Town,,17.989808,-76.778375,Saint Andrew,5854.5,0,5,0.25
Hope Tavern,Hope Tavern,,18.014586,-76.740749,Saint Andrew,5854.5,0,5,0.25
Drewsland,Drewsland,,18.024075,-76.830252,Saint Andrew,5854.5,0,5,0.25
Beverley Hills,Beverley Hills,,18.007787,-76.765392,Saint Andrew,5854.5,0,5,0.25
Patrick City,Patrick City,,18.031741,-76.838941,Saint Andrew,5854.5,0,5,0.25
Liguanea,Liguanea,,18.014748,-76.761065,Saint Andrew,5854.5,0,5,0.25
Hermitage,Hermitage,,17.993966,-76.743099,Saint Andrew,5854.5,0,5,0.25
Kintyre,Kintyre,,18.012346,-76.737282,Saint Andrew,5854.5,0,5,0.25
Cassia Park,Cassia Park,,18.020288,-76.807942,Saint Andrew,5854.5,0,5,0.25
Three Oaks/ Glendale,Three Oaks/ Glendale,,18.030895,-76.825648,Saint Andrew,5854.5,0,5,0.25
Whitfield Town,Whitfield Town,,17.994701,-76.80722,Saint Andrew,5854.5,0,5,0.25
Cherry Gardens,Cherry Gardens,,18.043437,-76.776932,Saint Andrew,5854.5,0,5,0.25
Half-Way-Tree,Half-Way-Tree,,18.00231,-76.792093,Saint Andrew,5854.5,0,5,0.25
Boucher Park,Boucher Park,,18.062488,-76.758457,Saint Andrew,5854.5,1,5,0.25
Molynes Four Roads,Molynes Four Roads,,18.012709,-76.801669,Saint Andrew,5854.5,0,5,0.25
Hope Pastures/ UTECH,Hope Pastures/ UTECH,,18.018682,-76.744474,Saint Andrew,5854.5,0,5,0.25
Eastwood Park Gardens,Eastwood Park Gardens,,18.015456,-76.798445,Saint Andrew,5854.5,0,5,0.25
August Town,August Town,,17.993023,-76.740867,Saint Andrew,5854.5,0,5,0.25
Golden Spring,Golden Spring,,18.09016,-76.801451,Saint Andrew,5854.5,1,5,0.25
Cockburn Gardens,Cockburn Gardens,,18.011768,-76.823082,Saint Andrew,5854.5,0,5,0.25
Molynes Gardens,Molynes Gardens,,18.034608,-76.817314,Saint Andrew,5854.5,0,5,0.25
Duhaney Park,Duhaney Park,,18.029629,-76.850474,Saint Andrew,5854.5,0,5,0.25
Oaklands,Oaklands,,18.035682,-76.796043,Saint Andrew,5854.5,0,5,0.25
Hughenden,Hughenden,,18.031415,-76.818395,Saint Andrew,5854.5,0,5,0.25
Marverley,Marverley,,18.014311,-76.809026,Saint Andrew,5854.5,0,5,0.25
Richmond Park,Richmond Park,,18.005164,-76.811546,Saint Andrew,5854.5,0,5,0.25
Forest Hills/ Plantation Height,Forest Hills/ Plantation Height,,18.041663,-76.856527,Saint Andrew,5854.5,0,5,0.25
Jones Town,Jones Town,,17.986069,-76.797846,Saint Andrew,5854.5,0,5,0.25
Arlene Gardens,Arlene Gardens,,18.036973,-76.824646,Saint Andrew,5854.5,0,5,0.25
Queensborough/ Tunbridge,Queensborough/ Tunbridge,,18.040034,-76.825525,Saint Andrew,5854.5,0,5,0.25
Mountain View Gardens,Mountain View Gardens,,17.986107,-76.766835,Saint Andrew,5854.5,0,5,0.25
Zaidie Gardens,Zaidie Gardens,,18.024342,-76.815872,Saint Andrew,5854.5,0,5,0.25
Trafalgar Park,Trafalgar Park,,18.011311,-76.784866,Saint Andrew,5854.5,0,5,0.25
Washington Gardens,Washington Gardens,,18.023423,-76.844708,Saint Andrew,5854.5,0,5,0.25
Drumblair,Drumblair,,18.026377,-76.789688,Saint Andrew,5854.5,0,5,0.25
Waltham Gardens,Waltham Gardens,,18.01235,-76.813414,Saint Andrew,5854.5,0,5,0.25
Woodford Park,Woodford Park,,17.984875,-76.780538,Saint Andrew,5854.5,0,5,0.25
Papine,Papine,,18.011598,-76.736538,Saint Andrew,5854.5,0,5,0.25
Bloxborough,Bloxborough,,18.059877,-76.756397,Saint Andrew,5854.5,1,5,0.25
Parry Town,Parry Town,,18.39452,-77.109599,Saint Ann,4601.2,1,5,0.25
Discovery Bay,Discovery Bay,,18.458202,-77.39847,Saint Ann,4601.2,5,5,0.25
Browns Town,Browns Town,,18.389459,-77.372638,Saint Ann,4601.2,5,5,0.25
Macknie,Macknie,,18.192827,-77.250484,Saint Ann,4601.2,5,5,0.25
Hinds Town,Hinds Town,,18.348784,-77.239577,Saint Ann,4601.2,5,5,0.25
Exchange,Exchange,,18.408173,-77.069562,Saint Ann,4601.2,1,5,0.25
Steer Town,Steer Town,,18.413123,-77.162896,Saint Ann,4601.2,5,5,0.25
St. Ann's Bay,St. Ann's Bay,,18.432947,-77.1974,Saint Ann,4601.2,5,5,0.25
Priory,Priory,,18.439175,-77.224708,Saint Ann,4601.2,5,5,0.25
Philadelphia,Philadelphia,,18.39317,-77.31952,Saint Ann,4601.2,5,5,0.25
York Castle,York Castle,,18.388052,-77.364536,Saint Ann,4601.2,5,5,0.25
Lime Hall,Lime Hall,,18.428506,-77.203429,Saint Ann,4601.2,5,5,0.25
Cole Gate,Cole Gate,,18.357073,-77.090049,Saint Ann,4601.2,1,5,0.25
Braeton,Braeton,,17.949508,-76.889391,Saint Catherine,6078,0,5,0.25
Spanish Town Central,Spanish Town Central,,18.019317,-76.975827,Saint Catherine,6078,0,5,0.25
Cromarty,Cromarty,,17.9827,-76.971507,Saint Catherine,6078,0,5,0.25
Hellshire,Hellshire,,17.897913,-76.894074,Saint Catherine,6078,7,5,0.25
Greater Portmore,Greater Portmore,,17.94798,-76.909565,Saint Catherine,6078,0,5,0.25
Bogwalk,Bogwalk,,18.105767,-77.007506,Saint Catherine,6078,0,5,0.25
Hampton Green,Hampton Green,,18.002845,-76.968627,Saint Catherine,6078,0,5,0.25
Sligoville,Sligoville,,18.093398,-76.975667,Saint Catherine,6078,0,5,0.25
Greendale,Greendale,,17.996237,-76.945172,Saint Catherine,6078,0,5,0.25
Ensom,Ensom,,18.011945,-76.963586,Saint Catherine,6078,0,5,0.25
Naggo Head,Naggo Head,,17.968093,-76.885067,Saint Catherine,6078,0,5,0.25
Willowdene,Willowdene,,17.995106,-76.983028,Saint Catherine,6078,0,5,0.25
Golden Acres,Golden Acres,,18.022518,-76.978427,Saint Catherine,6078,0,5,0.25
Bridgeport,Bridgeport,,17.96189,-76.879303,Saint Catherine,6078,0,5,0.25
Gregory Park,Gregory Park,,17.998693,-76.886508,Saint Catherine,6078,0,5,0.25
Old Harbour Road,Old Harbour Road,,17.980318,-76.998926,Saint Catherine,6078,0,5,0.25
Central Village,Central Village,,18.000664,-76.915328,Saint Catherine,6078,0,5,0.25
Kitson Town,Kitson Town,,18.018148,-77.052309,Saint Catherine,6078,7,5,0.25
Waterford,Waterford,,17.98744,-76.870655,Saint Catherine,6078,0,5,0.25
Keystone,Keystone,,18.018513,-76.942701,Saint Catherine,6078,0,5,0.25
St. John's East,St. John's East,,18.005143,-76.966906,Saint Catherine,6078,0,5,0.25
Troja,Troja,,18.208967,-76.922532,Saint Catherine,6078,0,5,0.25
Crescent,Crescent,,18.008796,-77.00368,Saint Catherine,6078,0,5,0.25
St. John's West,St. John's West,,18.004432,-77.034857,Saint Catherine,6078,0,5,0.25
Cumberland,Cumberland,,17.97661,-76.882185,Saint Catherine,6078,0,5,0.25
Passage Fort,Passage Fort,,17.981236,-76.864889,Saint Catherine,6078,0,5,0.25
Edgewater,Edgewater,,17.964203,-76.870655,Saint Catherine,6078,0,5,0.25
Independence City,Independence City,,17.982148,-76.881187,Saint Catherine,6078,0,5,0.25
Glengoffe,Glengoffe,,18.141852,-76.887229,Saint Catherine,22656.36364,1,5,0.25
Treasure Beach,Treasure Beach,,17.881749,-77.759513,Saint Elizabeth,3163.8,3,5,0.25
Bigwoods,Bigwoods,,17.937066,-77.713731,Saint Elizabeth,3163.8,3,5,0.25
Thornton,Thornton,,18.173463,-77.725353,Saint Elizabeth,3163.8,3,5,0.25
Slipe,Slipe,,18.046656,-77.788118,Saint Elizabeth,3163.8,3,5,0.25
Rose Hall,Rose Hall,,17.931334,-77.646955,Saint Elizabeth,3163.8,3,5,0.25
Junction,Junction,,17.899982,-77.604711,Saint Elizabeth,3163.8,3,5,0.25
Pisgah,Pisgah,,18.204446,-77.879617,Saint Elizabeth,3163.8,2,5,0.25
Braes River,Braes River,,18.080271,-77.647368,Saint Elizabeth,3163.8,3,5,0.25
Goshen,Goshen,,18.078846,-77.69942,Saint Elizabeth,3163.8,3,5,0.25
Ballards  Valley,Ballards  Valley,,17.897222,-77.613056,Saint Elizabeth,3163.8,3,5,0.25
Pedro Plains,Pedro Plains,,17.891718,-77.728331,Saint Elizabeth,3163.8,3,5,0.25
Watchwell,Watchwell,,17.935705,-77.760944,Saint Elizabeth,3163.8,3,5,0.25
Leeds,Leeds,,18.018349,-77.69012,Saint Elizabeth,3163.8,3,5,0.25
Giddy Hall,Giddy Hall,,18.111408,-77.860846,Saint Elizabeth,3163.8,3,5,0.25
Pepper,Pepper,,18.050308,-77.640726,Saint Elizabeth,3163.8,3,5,0.25
Middle Quarters,Middle Quarters,,18.102018,-77.833869,Saint Elizabeth,3163.8,3,5,0.25
Top Hill,Top Hill,,17.892578,-77.637542,Saint Elizabeth,3163.8,3,5,0.25
Lititz,Lititz,,17.941642,-77.580584,Saint Elizabeth,3163.8,3,5,0.25
Bull Savannah,Bull Savannah,,17.884618,-77.595062,Saint Elizabeth,3163.8,3,5,0.25
Aberdeen,Aberdeen,,18.198852,-77.708006,Saint Elizabeth,3163.8,3,5,0.25
Red Bank,Red Bank,,17.927427,-77.629677,Saint Elizabeth,3163.8,3,5,0.25
Holland,Holland,,18.06562,-77.757854,Saint Elizabeth,3163.8,3,5,0.25
Brighton,Brighton,,18.094564,-77.702125,Saint Elizabeth,3163.8,3,5,0.25
Hopeton,Hopeton,,17.995202,-76.925897,Saint Elizabeth,3163.8,0,5,0.25
Newton,Newton,,18.100438,-77.697318,Saint Elizabeth,3163.8,3,5,0.25
West Green,West Green,,18.460884,-77.925303,Saint James,2654.35,2,5,0.25
Catherine Hall,Catherine Hall,,18.461236,-77.921745,Saint James,2654.35,2,5,0.25
Rose Heights,Rose Heights,,18.476223,-77.89389,Saint James,2654.35,2,5,0.25
Down Town Montego Bay,Down Town Montego Bay,,18.476223,-77.89389,Saint James,2654.35,2,5,0.25
Brandon Hill,Brandon Hill,,18.475773,-77.911032,Saint James,2654.35,2,5,0.25
Orange,Orange,,18.480123,-77.922791,Saint James,2654.35,2,5,0.25
Granville,Granville,,18.445859,-77.898175,Saint James,2654.35,2,5,0.25
Bogue,Bogue,,18.441496,-77.923856,Saint James,2654.35,2,5,0.25
Pitfour,Pitfour,,18.442003,-77.896157,Saint James,2654.35,2,5,0.25
Norwood,Norwood,,18.492567,-77.90276,Saint James,2654.35,2,5,0.25
Mount Salem,Mount Salem,,18.466837,-77.906747,Saint James,2654.35,2,5,0.25
Albion,Albion,,18.482164,-77.918174,Saint James,2654.35,2,5,0.25
Flankers,Flankers,,18.504223,-77.898175,Saint James,2654.35,2,5,0.25
Unity Hall,Unity Hall,,18.448071,-77.978148,Saint James,2654.35,2,5,0.25
Dumfries,Dumfries,,18.422406,-77.76526,Saint James,2654.35,2,5,0.25
John's Hall,John's Hall,,18.419571,-77.852451,Saint James,2654.35,2,5,0.25
Catadupa,Catadupa,,18.279485,-77.873886,Saint James,2654.35,2,5,0.25
Somerton,Somerton,,18.429898,-77.788121,Saint James,2654.35,2,5,0.25
Rose Mount Garden,Rose Mount Garden,,18.468336,-77.896032,Saint James,2654.35,2,5,0.25
Barrett Town,Barrett Town,,18.509728,-77.801648,Saint James,2654.35,2,5,0.25
Paradise,Paradise,,18.476004,-77.922032,Saint James,2654.35,2,5,0.25
Lilliput,Lilliput,,18.51239,-77.776677,Saint James,2654.35,2,5,0.25
Green Pond,Green Pond,,18.47158,-77.872815,Saint James,2654.35,2,5,0.25
Glendevon,Glendevon,,18.480285,-77.900318,Saint James,2654.35,2,5,0.25
Welcome Hall,Welcome Hall,,18.373811,-77.843416,Saint James,2654.35,2,5,0.25
Farm Heights,Farm Heights,,18.47362,-77.88746,Saint James,2654.35,2,5,0.25
Maldon,Maldon,,18.461833,-77.918831,Saint James,2654.35,2,5,0.25
Retirement,Retirement,,18.439472,-77.889603,Saint James,2654.35,2,5,0.25
Porto Bello,Porto Bello,,18.462396,-77.881061,Saint James,2654.35,2,5,0.25
Tangle River,Tangle River,,18.346079,-77.820379,Saint James,2654.35,2,5,0.25
Flower Hill,Flower Hill,,18.494821,-77.84873,Saint James,2654.35,2,5,0.25
Salt Spring,Salt Spring,,18.479235,-77.89882,Saint James,2654.35,2,5,0.25
Rosemount,Rosemount,,18.474375,-77.898842,Saint James,2654.35,2,5,0.25
Niagara,Niagara,,18.279583,-77.833226,Saint James,2654.35,2,5,0.25
Coral Gardens,Coral Gardens,,18.510182,-77.863807,Saint James,2654.35,2,5,0.25
Tucker,Tucker,,18.450713,-77.886892,Saint James,2654.35,2,5,0.25
Ironshore,Ironshore,,18.507396,-77.896737,Saint James,2654.35,2,5,0.25
Adelphi,Adelphi,,18.448151,-77.79126,Saint James,2654.35,2,5,0.25
Montpelier,Montpelier,,18.362896,-77.923887,Saint James,2654.35,2,5,0.25
Summer Hill,Summer Hill,,18.517281,-77.838917,Saint James,2654.35,2,5,0.25
Mount Carey,Mount Carey,,18.386785,-77.932457,Saint James,2654.35,2,5,0.25
Reading,Reading,,18.44004,-77.943881,Saint James,2654.35,2,5,0.25
Irwin,Irwin,,18.462051,-77.91793,Saint James,2654.35,2,5,0.25
Spot Valley,Spot Valley,,18.496956,-77.793811,Saint James,2654.35,2,5,0.25
Catherine Mount,Catherine Mount,,18.464327,-77.901747,Saint James,2654.35,2,5,0.25
Friendship,Friendship,,18.474764,-77.917934,Saint James,2654.35,2,5,0.25
Montego Hill,Montego Hill,,18.489762,-77.888889,Saint James,2654.35,2,5,0.25
Flamstead,Flamstead,,18.325247,-77.822141,Saint James,2654.35,2,5,0.25
Tower Hill/Moy Hall,Tower Hill/Moy Hall,,18.412888,-77.861743,Saint James,2654.35,2,5,0.25
Castleton,Castleton,,18.201507,-76.825244,Saint Mary,3841.666667,1,5,0.25
Galina,Galina,,18.40473,-76.893714,Saint Mary,3841.666667,1,5,0.25
Enfield,Enfield,,18.232629,-76.741464,Saint Mary,3841.666667,1,5,0.25
Guys Hill,Guys Hill,,18.249976,-76.990228,Saint Mary,3841.666667,0,5,0.25
Martin,Martin,,18.283881,-76.870655,Saint Mary,3841.666667,1,5,0.25
Epson,Epson,,18.249115,-76.72665,Saint Mary,3841.666667,1,5,0.25
Baileys Vale,Baileys Vale,,18.351525,-76.906039,Saint Mary,3841.666667,1,5,0.25
Clonmel,Clonmel,,18.242302,-76.850084,Saint Mary,3841.666667,1,5,0.25
Font Hill,Font Hill,,17.937417,-76.505465,Saint Thomas,4157.25,4,5,0.25
Duckenfield,Duckenfield,,17.921518,-76.260946,Saint Thomas,4157.25,4,5,0.25
Church Corner,Church Corner,,17.886246,-76.417259,Saint Thomas,4157.25,4,5,0.25
Port Morant,Port Morant,,17.896142,-76.331889,Saint Thomas,4157.25,4,5,0.25
White Horses,White Horses,,17.881546,-76.453417,Saint Thomas,4157.25,4,5,0.25
Retreat,Retreat,,17.875097,-76.373498,Saint Thomas,4157.25,4,5,0.25
Wilmington,Wilmington,,18.408328,-77.856936,Saint Thomas,4157.25,2,5,0.25
Barking Lodge,Barking Lodge,,17.892806,-76.284408,Saint Thomas,4157.25,4,5,0.25
Amity Hall,Amity Hall,,17.955861,-76.249722,Saint Thomas,4157.25,4,5,0.25
Salt Marsh,Salt Marsh,,18.494491,-77.703713,Trelawny,2977.857143,5,5,0.25
Bounty Hall,Bounty Hall,,18.451858,-77.708525,Trelawny,2977.857143,5,5,0.25
Clarks Town,Clarks Town,,18.415307,-77.541879,Trelawny,2977.857143,5,5,0.25
Deeside,Deeside,,18.370508,-77.609482,Trelawny,2977.857143,5,5,0.25
Bunkers Hill,Bunkers Hill,,18.1925,-76.9225,Trelawny,2977.857143,0,5,0.25
Alps,Alps,,18.335778,-77.514272,Trelawny,2977.857143,5,5,0.25
Duanvale,Duanvale,,18.405692,-77.594895,Trelawny,2977.857143,5,5,0.25
Kinloss,Kinloss,,18.403423,-77.560509,Trelawny,2977.857143,5,5,0.25
Martha Brae,Martha Brae,,18.47048,-77.660055,Trelawny,2977.857143,5,5,0.25
Sherwood Content,Sherwood Content,,18.390794,-77.627018,Trelawny,2977.857143,5,5,0.25
Samuels Prospect,Samuels Prospect,,18.371811,-77.608795,Trelawny,2977.857143,5,5,0.25
Daniel Town,Daniel Town,,18.456764,-77.617812,Trelawny,2977.857143,5,5,0.25
Jackson Town,Jackson Town,,18.412672,-77.480235,Trelawny,2977.857143,5,5,0.25
Spicy Hill,Spicy Hill,,18.458509,-77.544937,Trelawny,2977.857143,5,5,0.25
Hampden,Hampden,,18.440133,-77.745244,Trelawny,2977.857143,5,5,0.25
Orange Hill,Orange Hill,,18.263333,-77.989722,Westmoreland,4190.181818,2,5,0.25
Jerusalem,Jerusalem,,18.326959,-78.230576,Westmoreland,4190.181818,6,5,0.25
Burnt Savannah,Burnt Savannah,,18.316667,-78.1,Westmoreland,4190.181818,2,5,0.25
Haddo,Haddo,,18.292532,-78.021679,Westmoreland,4190.181818,2,5,0.25
Savannah-la-mar Business Dist.,Savannah-la-mar Business Dist.,,18.225995,-78.130876,Westmoreland,4190.181818,2,5,0.25
Smithfield,Smithfield,,18.221877,-78.107797,Westmoreland,4190.181818,2,5,0.25
Georges Plain,Georges Plain,,18.278954,-78.14219,Westmoreland,4190.181818,2,5,0.25
Fort Williams,Fort Williams,,18.305556,-78.065833,Westmoreland,4190.181818,2,5,0.25
Paul Island,Paul Island,,18.285022,-78.252865,Westmoreland,4190.181818,6,5,0.25
Town Head,Town Head,,18.319455,-78.13965,Westmoreland,4190.181818,2,5,0.25
Hertford,Hertford,,18.258231,-78.090865,Westmoreland,4190.181818,2,5,0.25
Shefield,Shefield,,18.27758,-78.304577,Westmoreland,4190.181818,6,5,0.25
Truro,Truro,,18.308972,-78.150412,Westmoreland,4190.181818,2,5,0.25
Strathbogie,Strathbogie,,18.305557,-78.156917,Westmoreland,4190.181818,2,5,0.25
Llandilo,Llandilo,,18.229495,-78.141656,Westmoreland,4190.181818,2,5,0.25
Cave,Cave,,18.207138,-78.043795,Westmoreland,4190.181818,2,5,0.25
Mount Airy,Mount Airy,,18.251214,-78.328492,Westmoreland,4190.181818,6,5,0.25
Delveland,Delveland,,18.275302,-78.23772,Westmoreland,4190.181818,6,5,0.25
Mackfield,Mackfield,,18.312728,-78.155544,Westmoreland,4190.181818,2,5,0.25
Gooden's River,Gooden's River,,18.31338,-78.158977,Westmoreland,4190.181818,2,5,0.25
Chantilly,Chantilly,,18.312728,-78.154857,Westmoreland,4190.181818,2,5,0.25
Whithorn,Whithorn,,18.279854,-78.028814,Westmoreland,4190.181818,2,5,0.25
Broughton,Broughton,,18.227301,-78.225114,Westmoreland,4190.181818,6,5,0.25
Whitehouse,Whitehouse,,18.094397,-77.966727,Westmoreland,4190.181818,2,5,0.25
Mount Stewart,Mount Stewart,,18.298321,-77.995166,Westmoreland,4190.181818,2,5,0.25
Seaton Crescent,Seaton Crescent,,18.228115,-78.135487,Westmoreland,4190.181818,2,5,0.25
Three Mile River,Three Mile River,,18.259891,-78.135817,Westmoreland,4190.181818,2,5,0.25
Cornwall Mountian,Cornwall Mountian,,18.291414,-77.988892,Westmoreland,4190.181818,2,5,0.25
Fullersfield,Fullersfield,,18.287131,-78.19901,Westmoreland,4190.181818,6,5,0.25
